,정류장이름,정류장ID,위도,경도
0,성원아트빌,MPB111200021,34.8072411,126.4181054
1,하당동주민센터,MPB111200022,34.8081326,126.4200014
2,이마트,MPB111200024,34.8117169,126.4239747
3,청호시장입구,MPB111200025,34.814472,126.421995
4,성신고등학교,MPB111200027,34.817387,126.411595
5,유달산입구,MPB111200052,34.78638,126.378543
6,아리랑고개,MPB111200053,34.784503,126.376585
7,서산초등학교후문,MPB111200054,34.782467,126.373938
8,신안군교육청,MPB111200059,34.785003,126.38144
9,중앙새마을금고,MPB111200066,34.79251,126.393107
10,상동초등학교,MPB111200080,34.813613,126.413902
11,항도여중,MPB111200081,34.815278,126.412947
12,청호시장입구,MPB111200083,34.814522,126.421735
13,우성아파트,MPB111200089,34.8019259,126.4205875
14,초원아파트,MPB111200091,34.800868,126.424543
15,제일3차아파트,MPB111200100,34.812982,126.428202
16,청호시장,MPB111200102,34.816413,126.423362
17,하당보건소,MPB111900022,34.816843,126.425787
18,제일3차후문,MPB111900024,34.8121162,126.4278344
19,성원아트빌,MPB111900028,34.807398,126.417945
20,영흥중고등학교,MPB111900029,34.804891,126.4184914
21,목포소방서육교,MPB111900032,34.8079291,126.4295231
22,대불역,MPB111900040,34.773117,126.418677
23,용당부두,MPB111900041,34.771135,126.404348
24,용당부두입구,MPB111900042,34.769057,126.39905
25,모밀항,MPB111900043,34.7537326,126.3880368
26,현대삼호중공업입구,MPB111900044,34.750238,126.386182
27,해남광장,MPB111900048,34.720267,126.385775
28,금호검문소,MPB111900049,34.712145,126.377822
29,금호,MPB111900050,34.695953,126.36644
30,별암,MPB111900052,34.696417,126.340715
31,저상,MPB111900053,34.697523,126.334447
32,평지,MPB111900054,34.6950501,126.3322158
33,해남구지,MPB111900055,34.689948,126.33007
34,화원초등학교,MPB111900057,34.6744745,126.3338112
35,화원터미널,MPB111900058,34.668405,126.329882
36,화원면화원장,MPB111900059,34.666953,126.327723
37,이목,MPB111900061,34.645707,126.316932
38,무고승강장,MPB111900063,34.62603,126.31263
39,이목,MPB111900065,34.651447,126.319078
40,화원면화원장,MPB111900066,34.667025,126.327747
41,화원터미널,MPB111900067,34.6681508,126.3297744
42,평지,MPB111900071,34.695077,126.332092
43,저상,MPB111900072,34.6973933,126.3345248
44,별암,MPB111900073,34.6963479,126.3408313
45,금호,MPB111900075,34.695713,126.366498
46,금호검문소,MPB111900076,34.712425,126.378168
47,해남광장,MPB111900077,34.720328,126.385952
48,용당부두입구,MPB111900082,34.768633,126.399256
49,용당부두,MPB111900083,34.7706629,126.4060042
50,대불역,MPB111900084,34.773043,126.419142
51,만남의폭포,MPB111900092,34.803938,126.438677
52,목포소방서육교,MPB111900094,34.808241,126.4291091
53,포르모,MPB111900095,34.8066321,126.4256042
54,하당동주민센터,MPB111900099,34.808328,126.419913
55,이마트,MPB111900101,34.810955,126.425398
56,유달유원지,MPB113000005,34.787876,126.3673782
57,공생원,MPB113000006,34.7858582,126.3700289
58,신안비치호텔,MPB113000007,34.7848921,126.3694027
59,인어바위,MPB113000008,34.7809447,126.3691451
60,서부초등학교,MPB113000027,34.8012097,126.3720527
61,어민동산입구,MPB113000028,34.801763,126.3699737
62,신안비치팔레스,MPB113000032,34.807925,126.372067
63,하장천,MPB113000046,34.844383,126.349497
64,소무골,MPB113000056,34.858415,126.293287
65,미곡종합처리장,MPB113000059,34.862083,126.277213
66,반월,MPB113000060,34.861698,126.272023
67,송공산입구,MPB113000061,34.858672,126.26522
68,장밖,MPB113000062,34.858288,126.254552
69,상촌,MPB113000063,34.84959,126.244712
70,솔꼬지,MPB113000064,34.849917,126.232179
71,송공항,MPB113000067,34.848287,126.226957
72,솔꼬지,MPB113000068,34.849727,126.232225
73,상촌,MPB113000071,34.849547,126.244832
74,송공산입구,MPB113000073,34.858593,126.265208
75,반월,MPB113000074,34.86167,126.272165
76,미곡종합처리장,MPB113000075,34.862032,126.277155
77,조천,MPB113000076,34.86069,126.285628
78,광립,MPB113000079,34.857213,126.297587
79,신안군농업기술센터,MPB113000080,34.858753,126.30105
80,중앙,MPB113000083,34.864888,126.314045
81,신안군립도서관,MPB113000084,34.862933,126.317833
82,용강,MPB113000085,34.8601002,126.3338028
83,신기,MPB113000086,34.854083,126.34029
84,하장천,MPB113000088,34.84436,126.34942
85,신안군의회,MPB113000092,34.833457,126.350228
86,죽교동주민센터,MPB113000109,34.799757,126.3768168
87,해양대학교,MPB115000004,34.7899933,126.3661284
88,서산초등학교,MPB115000011,34.7805188,126.3757355
89,동명농협,MPB115000018,34.78969,126.39281
90,목포시청,MPB115000027,34.8110016,126.3919943
91,마리아회고등학교,MPB115000028,34.8118301,126.3959388
92,구.목포경찰서,MPB115000030,34.8143302,126.4001847
93,금호장례식장,MPB115000033,34.822138,126.401828
94,용해펌프장,MPB115000034,34.8217625,126.3938567
95,삽진공단입구,MPB115000036,34.820945,126.385893
96,신안군청정문,MPB115000042,34.8311485,126.3506823
97,신안군의회,MPB115000043,34.833445,126.350272
98,압해동교,MPB115000044,34.839477,126.354492
99,신기,MPB115000047,34.854117,126.340348
100,신안군군립도서관,MPB115000049,34.863048,126.317828
101,중앙,MPB115000050,34.864948,126.314053
102,동서,MPB115000052,34.865227,126.306438
103,광립,MPB115000054,34.857263,126.297463
104,장밖,MPB115000061,34.8581741,126.254509
105,분재공원,MPB115000063,34.842343,126.2523
106,수락,MPB115000064,34.84253,126.264188
107,수락리,MPB115000065,34.844177,126.265043
108,송공산등산로입구,MPB115000066,34.852818,126.263277
109,조천,MPB115000070,34.86071,126.28562
110,소무골,MPB115000072,34.858357,126.29323
111,신안군농업기술센터,MPB115000074,34.858728,126.30091
112,동서,MPB115000075,34.865177,126.306503
113,용강,MPB115000079,34.86022,126.333805
114,압해동교,MPB115000082,34.839422,126.354428
115,신동마을,MPB115000091,34.821143,126.389892
116,금호장례식장,MPB115000093,34.8222032,126.4017017
117,대연초등학교,MPB115000094,34.819507,126.39887
118,목포시청,MPB115000099,34.8114905,126.3931958
119,연동초등학교,MPB115000105,34.797308,126.392967
120,목포요양병원,MPB115000109,34.7864765,126.3882074
121,항동시장,MPB115000110,34.7854962,126.3865155
122,아구촌상가,MPB115000111,34.7835081,126.3850559
123,여객선터미널,MPB115000112,34.782594,126.3837075
124,국제여객선터미널,MPB115000113,34.7822816,126.3820942
125,목포요양병원,MPB115000114,34.7862709,126.3884069
126,온금동,MPB115000118,34.7806723,126.3713728
127,인어바위,MPB115000119,34.781974,126.3688032
128,용전마을,MPB115000125,34.791797,126.367262
129,삼학파출소,MPB120000002,34.7873183,126.4004757
130,삼학도입구,MPB120000004,34.78729,126.394483
131,한국병원,MPB120000018,34.8072769,126.4159534
132,카톨릭대학교,MPB120000023,34.826597,126.421808
133,세종병원,MPB120000024,34.828165,126.420603
134,고속주유소,MPB120000026,34.834252,126.418853
135,전남예술고입구,MPB120000028,34.8470413,126.4258776
136,삼성물류센터,MPB120000029,34.851003,126.427175
137,왕산,MPB120000030,34.854692,126.42796
138,평산,MPB120000031,34.857133,126.42745
139,덕산,MPB120000032,34.866992,126.425053
140,지산군부대,MPB120000033,34.868852,126.422827
141,원지산,MPB120000034,34.87564,126.425147
142,구암삼거리,MPB120000035,34.889627,126.430383
143,법천사입구,MPB120000036,34.894683,126.432405
144,청계고개,MPB120000037,34.900728,126.433273
145,목포대학교,MPB120000038,34.9072,126.430963
146,청계면사무소,MPB120000039,34.91103,126.429637
147,청계중학교,MPB120000040,34.914673,126.428432
148,월암마을,MPB120000041,34.917297,126.427533
149,상마삼거리,MPB120000042,34.92162,126.42645
150,한국폴리텍대학,MPB120000043,34.924755,126.427637
151,초원농장,MPB120000044,34.9298244,126.4309189
152,대성동,MPB120000045,34.932138,126.432488
153,서씨묘역입구,MPB120000046,34.939517,126.439263
154,청계농공단지,MPB120000047,34.943335,126.441918
155,태봉리,MPB120000048,34.949173,126.443558
156,청계북초등학교,MPB120000049,34.956635,126.447218
157,화설당,MPB120000050,34.9649,126.454553
158,청천리,MPB120000051,34.969188,126.457623
159,큰골,MPB120000052,34.9749643,126.4637917
160,무안군농업기술센터,MPB120000053,34.9777427,126.467098
161,초당대학교,MPB120000054,34.980297,126.4700458
162,백제고등학교,MPB120000055,34.9831602,126.4732748
163,무안군청,MPB120000057,34.9904036,126.4805637
164,무안교통(종점),MPB120000059,34.9983821,126.4871732
165,용산,MPB120000060,34.994447,126.483245
166,무안터미널,MPB120000062,34.9871643,126.4776183
167,무안전화국,MPB120000063,34.98407,126.473972
168,초당대학교,MPB120000064,34.980247,126.469647
169,큰골,MPB120000066,34.975207,126.463808
170,청천리,MPB120000067,34.96887,126.45717
171,화설당,MPB120000068,34.964542,126.454202
172,청계북초등학교,MPB120000069,34.956483,126.44675
173,태봉리,MPB120000070,34.94824,126.44315
174,청계농공단지,MPB120000071,34.94328,126.441675
175,서씨묘역입구,MPB120000072,34.93942,126.43892
176,대성동,MPB120000073,34.932548,126.43264
177,초원농장,MPB120000074,34.9296687,126.4306363
178,한국폴리텍대학,MPB120000075,34.924028,126.426922
179,상마삼거리,MPB120000076,34.91988,126.42642
180,청계중학교,MPB120000077,34.91365,126.428527
181,청계,MPB120000078,34.910928,126.429438
182,목포대학교,MPB120000079,34.90715,126.430703
183,청계고개,MPB120000080,34.90032,126.433252
184,법천사입구,MPB120000081,34.894998,126.432253
185,구암삼거리,MPB120000082,34.889635,126.43011
186,장부다리,MPB120000083,34.887548,126.429305
187,원지산,MPB120000084,34.87927,126.42658
188,지산,MPB120000085,34.875705,126.424935
189,지산군부대,MPB120000086,34.868708,126.422622
190,평산,MPB120000087,34.856375,126.427388
191,왕산,MPB120000088,34.85444,126.427738
192,삼성물류센터,MPB120000089,34.850995,126.426945
193,전남예술고입구,MPB120000090,34.846895,126.425628
194,거북정,MPB120000092,34.834232,126.418355
195,용전마을,MPB100100003,34.7916504,126.3669768
196,아리랑고개입구,MPB100100010,34.7802944,126.3734053
197,목포수협,MPB100100012,34.7808034,126.3777448
198,목포수협공판장,MPB100100013,34.780925,126.38002
199,동명동어시장,MPB100100017,34.7874704,126.3904019
200,목포우체국,MPB100100026,34.804825,126.3974665
201,목포과학대학교,MPB100100030,34.806277,126.411937
202,국제여객선터미널,MPB100100058,34.7818439,126.3815646
203,송광아파트,MPB100100060,34.781747,126.379295
204,서산초등학교,MPB100100062,34.7805894,126.3755619
205,신안비치호텔,MPB100100066,34.784708,126.369543
206,해양대후문,MPB100100073,34.7935615,126.3649832
207,동명동사거리,MPB100101017,34.789385,126.3911
208,목포역,MPB100101019,34.7911588,126.3860022
209,목포미래병원,MPB100101036,34.822097,126.428068
210,임성리역,MPB100101038,34.8208587,126.435058
211,상용마을,MPB100101043,34.8232782,126.4504446
212,구옥남초등학교,MPB100101044,34.8179705,126.4534532
213,전남보훈협회,MPB100101047,34.811548,126.445828
214,남악아이파크,MPB100101048,34.8112199,126.4548779
215,목포우미파렌하이트,MPB100101049,34.8086358,126.4537571
216,한라비발디,MPB100101050,34.807438,126.455652
217,옥암모아엘가,MPB100101051,34.8081,126.458033
218,전남도청,MPB100101053,34.814222,126.4619
219,남악호수,MPB100101054,34.8123087,126.4656934
220,남악고등학교,MPB100101055,34.810962,126.46866
221,남악부영ⓐ,MPB100101056,34.812733,126.471323
222,삼향안동마을,MPB100101058,34.815517,126.480703
223,용포1구후정,MPB100101060,34.823573,126.484825
224,용포1구후정,MPB100101061,34.824897,126.48407
225,용포2리용계,MPB100101062,34.828455,126.478635
226,용포3리원용포,MPB100101063,34.830087,126.470465
227,삼향용계,MPB100101064,34.8293576,126.4751865
228,삼향용포2리,MPB100101065,34.8292453,126.4763088
229,삼향후정,MPB100101067,34.825963,126.482522
230,삼향안동,MPB100101068,34.8178767,126.4835445
231,삼향안동,MPB100101069,34.8178324,126.483638
232,삼향안동마을,MPB100101070,34.8155661,126.480588
233,무안남악부영,MPB100101071,34.8142637,126.472732
234,남악근화베아체ⓐ,MPB100101072,34.812727,126.471042
235,남악중학교,MPB100101073,34.8110819,126.4702175
236,남악고등학교,MPB100101074,34.811082,126.468777
237,남악소방서,MPB100101075,34.8122765,126.466153
238,목포우미파렌하이트,MPB100101082,34.8085583,126.454179
239,주공오룡마을,MPB100101083,34.812872,126.455262
240,근화옥암베아체,MPB100101084,34.814503,126.453082
241,법원검찰청,MPB100101085,34.81307,126.4456553
242,남악출장소,MPB100101087,34.81511,126.45513
243,구옥남초교앞(건너),MPB100101088,34.818115,126.453473
244,상용마을,MPB100101089,34.823352,126.450532
245,목포미래병원,MPB100101095,34.82273,126.4273907
246,보호관찰소,MPB100101096,34.8247579,126.4242207
247,목포과학대학교,MPB100101103,34.8065384,126.4115027
248,청해사,MPB100101104,34.8064028,126.4074376
249,문화방송,MPB100101105,34.8060434,126.4026726
250,홈플러스,MPB100101106,34.8056601,126.3995762
251,목포수협공판장,MPB100101122,34.780968,126.379492
252,아리랑고개입구,MPB100101125,34.7804122,126.3734638
253,낙조대,MPB100101130,34.7869457,126.3681833
254,대양검문소,MPB100102040,34.837432,126.422238
255,전남예술고등학교,MPB100102042,34.845458,126.429753
256,삼향초등학교,MPB100102043,34.843148,126.433022
257,유교삼거리,MPB100102044,34.843207,126.434742
258,군산동(종점),MPB100102047,34.8551975,126.4450611
259,유교삼거리,MPB100102050,34.843278,126.434657
260,삼향초등학교,MPB100102051,34.843245,126.432948
261,전남예술고등학교,MPB100102052,34.845447,126.42969
262,대양검문소,MPB100102054,34.8375912,126.4218828
263,해양대후문,MPB100103002,34.79349,126.365235
264,목포수협,MPB100103012,34.7806505,126.3777851
265,항동시장,MPB100103016,34.784932,126.3864466
266,산정초등학교입구,MPB100103022,34.7998335,126.3904713
267,2호광장,MPB100103023,34.8018203,126.3922812
268,연동파출소,MPB100103024,34.8038249,126.3954694
269,문화방송,MPB100103027,34.805918,126.403173
270,영신그린빌,MPB100103037,34.831518,126.418093
271,중앙고등학교,MPB100103040,34.835745,126.425458
272,근화희망타운,MPB100103041,34.837215,126.428052
273,중앙고등학교,MPB100103042,34.83577,126.4256883
274,영신그린빌,MPB100103045,34.831387,126.417767
275,목포수협,MPB100103072,34.7811235,126.3773601
276,구.상하수도사업단,MPB100200020,34.8108414,126.3892523
277,종원나이스빌,MPB100200022,34.807778,126.385665
278,목포YMCA,MPB100200030,34.788383,126.384758
279,초원주차장,MPB100200033,34.782585,126.382715
280,공생원,MPB100200042,34.785853,126.370305
281,유달유원지,MPB100200044,34.78823,126.367445
282,해양대학교,MPB100200045,34.790202,126.366425
283,구.서산초충무분교,MPB100200047,34.7621194,126.3679596
284,온금동,MPB100200054,34.7805914,126.3709095
285,인수당한약방,MPB100200062,34.787248,126.3863
286,목포여고,MPB100200066,34.7971138,126.3844366
287,대성동주민센터,MPB100200067,34.800905,126.383648
288,대성LH아파트,MPB100200068,34.8026901,126.3823817
289,대성동LH아파트,MPB100200069,34.802522,126.3817499
290,종원나이스빌,MPB100200070,34.807842,126.385858
291,산정동주민센터,MPB100200071,34.809005,126.386177
292,구.상하수도사업단,MPB100200072,34.8106028,126.3892938
293,용해2단지아파트,MPB100200075,34.812428,126.39849
294,청해사,MPB100200081,34.8060656,126.4075459
295,버스터미널(상동입구),MPB100200084,34.811788,126.4167416
296,한울웨딩홀,MPB100301002,34.7894308,126.4022402
297,삼학타운,MPB100301004,34.7941112,126.4022929
298,목포공업고등학교,MPB100301005,34.7969927,126.4023531
299,성신고등학교,MPB100301017,34.8173,126.411668
300,포미타운입구,MPB100301025,34.817188,126.398538
301,용해동주민센터,MPB100301026,34.816725,126.399528
302,연산동근화아파트,MPB100301032,34.8116882,126.3863032
303,연산주공APT,MPB100301033,34.8129782,126.3839134
304,목포중앙식료시장,MPB100301046,34.794717,126.379897
305,목포세무서,MPB100301047,34.7938018,126.3840451
306,목포세무서,MPB100302008,34.7937414,126.3848274
307,목포중앙식료시장,MPB100302009,34.7946888,126.3802806
308,북항회어시장,MPB100302016,34.8040247,126.3671836
309,용해초등학교,MPB100302033,34.819525,126.396067
310,항도여중,MPB100600006,34.8156383,126.4124884
311,버스터미널,MPB100600008,34.811092,126.417615
312,용해교,MPB100600011,34.80538,126.408875
313,신안인스빌,MPB100600012,34.802988,126.408802
314,용해동동아아파트,MPB100600014,34.797773,126.408728
315,제일중학교,MPB100600015,34.796363,126.408597
316,현악서예학원,MPB100600020,34.7879333,126.3989723
317,삼학한옥입구,MPB100600022,34.7926829,126.3990043
318,문태중고등학교,MPB100600026,34.799558,126.40174
319,시립도서관,MPB100600027,34.80137,126.400798
320,유달제일교회,MPB100600028,34.803473,126.399657
321,기쁜소식목포교회,MPB100600036,34.804563,126.386448
322,산정초등학교후문,MPB100600037,34.8013247,126.3881655
323,북교초등학교,MPB100600044,34.796185,126.378783
324,중앙시장,MPB100600054,34.809588,126.376133
325,라인아파트,MPB100600055,34.808475,126.375825
326,국제볼링장,MPB100600056,34.806107,126.373488
327,보건소사거리,MPB100600057,34.805053,126.374673
328,목포남교트윈스타,MPB100600064,34.792735,126.382145
329,호남119안전센터,MPB100600068,34.7966476,126.3881802
330,산정초등학교후문,MPB100600069,34.801395,126.38837
331,기쁜소식목포교회,MPB100600070,34.803718,126.387152
332,시립도서관,MPB100600079,34.801002,126.400755
333,목포공업고등학교,MPB100600081,34.7973232,126.4020044
334,삼학타운,MPB100600082,34.794622,126.40203
335,삼학한옥입구,MPB100600084,34.792525,126.39888
336,은혜슈퍼,MPB100600085,34.789913,126.39888
337,현악서예학원,MPB100600086,34.788002,126.398817
338,동백아파트,MPB100600089,34.789265,126.405108
339,제일중학교정문,MPB100600091,34.795988,126.408787
340,용해동아아파트,MPB100600092,34.79786,126.409
341,한국전력,MPB100600094,34.8031236,126.4091863
342,용해교,MPB100600095,34.805225,126.4092318
343,상동초등학교,MPB100600099,34.813378,126.413788
344,남해환경사업소,MPB100701003,34.790963,126.406717
345,제일중학교,MPB100701004,34.7951469,126.4093799
346,우성아파트,MPB100701011,34.8021439,126.4207759
347,용해동금호아파트,MPB100701014,34.8011194,126.4091219
348,행운타워,MPB100701030,34.8054817,126.3760143
349,보건소사거리,MPB100701031,34.8038235,126.3760149
350,중앙하이츠입구,MPB100701032,34.8024917,126.3775821
351,대성농협,MPB100701034,34.798057,126.382765
352,양동우체국,MPB100701035,34.7977,126.380183
353,북교동교회앞,MPB100701038,34.794112,126.379558
354,로데오광장,MPB100701040,34.791093,126.383348
355,유달산등구,MPB100701041,34.789142,126.3840663
356,유달산우체국,MPB100701042,34.7869298,126.3829627
357,종원빌라트,MPB100701051,34.7897786,126.3958349
358,한흥맨션,MPB100701052,34.7923091,126.395869
359,한흥맨션,MPB100702006,34.7923013,126.3957029
360,종원빌라트,MPB100702007,34.7907439,126.3956898
361,삼학우체국,MPB100702008,34.7886734,126.3956748
362,초원주차장,MPB100702015,34.7829,126.38257
363,상공회의소,MPB100702016,34.7852939,126.3823465
364,유달산등구,MPB100702018,34.7892797,126.3841442
365,로데오광장,MPB100702019,34.7906754,126.3836325
366,중앙하이츠입구,MPB100702028,34.80268,126.377633
367,산정동교회,MPB100702031,34.8077278,126.378835
368,연산주공후문,MPB100702032,34.8107149,126.3826298
369,용해동금호아파트,MPB100702046,34.80061,126.408822
370,목포고용노동부,MPB100702051,34.800347,126.421723
371,목포자연사박물관,MPB100702054,34.793092,126.422458
372,문화예술회관,MPB100702055,34.792593,126.417073
373,남해하수펌프장,MPB100702056,34.793585,126.412288
374,한성주택,MPB100702057,34.794568,126.407987
375,남해환경사업소,MPB100702058,34.7912,126.4064512
376,동백아파트,MPB100702059,34.789408,126.4048134
377,상공회의소,MPB100800011,34.7853285,126.382193
378,차없는거리,MPB100800014,34.791585,126.3850838
379,신안비치3차아파트,MPB100800025,34.8054297,126.3687418
380,구.서산초충무분교,MPB100800030,34.7620936,126.368102
381,고하마을,MPB100800031,34.765308,126.370252
382,고하마을,MPB100800032,34.7653229,126.3701668
383,현대삼호아파트3차,MPB100800037,34.748052,126.375832
384,삼호서초등학교,MPB100800038,34.746853,126.377718
385,한마음회관,MPB100800039,34.744857,126.381012
386,현대삼호아파트2차,MPB100800040,34.743872,126.383447
387,고하도입구,MPB100800048,34.7595185,126.3641491
388,농협북항지점,MPB100800062,34.807165,126.372225
389,구.제일극장,MPB100800068,34.7978412,126.3785229
390,북교초등학교,MPB100800069,34.795992,126.378722
391,목포여객선터미널,MPB100800077,34.7833348,126.3853369
392,동명동사거리(물양장),MPB100800080,34.7881,126.392483
393,4차입구,MPB100800081,34.787028,126.396633
394,삼학파출소,MPB100800082,34.786968,126.400108
395,부영2차아파트,MPB101000010,34.8038477,126.4309369
396,로고스교회,MPB101000011,34.8026611,126.4283777
397,보석사우나,MPB101000012,34.802823,126.427153
398,한솔문고,MPB101000013,34.804173,126.426092
399,하당우체국,MPB101000014,34.8071382,126.4240911
400,하당농협,MPB101000015,34.8081397,126.4230417
401,제일성결교회,MPB101000016,34.809873,126.423575
402,용당아파트,MPB101000026,34.808815,126.398902
403,용해2단지아파트,MPB101000028,34.8125442,126.3981213
404,마리아회고등학교,MPB101000029,34.8120379,126.3958868
405,구청호시장,MPB101000037,34.7947516,126.392861
406,대성농협,MPB101000044,34.798288,126.382743
407,연산초등학교,MPB101000056,34.810782,126.380117
408,중앙시장,MPB101000057,34.809975,126.3778785
409,연동초등학교,MPB101000073,34.796732,126.393175
410,2호광장,MPB101000074,34.8009344,126.3930309
411,동초등학교,MPB101000077,34.8096484,126.3884647
412,용해하이츠,MPB101000082,34.811283,126.39915
413,KT동목포지점,MPB101000083,34.809198,126.398765
414,한일시장,MPB101000084,34.806987,126.398392
415,버스터미널,MPB101000090,34.8109833,126.4180094
416,이마트,MPB101000091,34.810825,126.423305
417,제일성결교회,MPB101000092,34.809925,126.423342
418,하당농협,MPB101000093,34.808187,126.423262
419,한솔문고,MPB101000095,34.8045731,126.4255533
420,보석사우나,MPB101000096,34.8029384,126.4266939
421,제일여고,MPB101000100,34.807593,126.431785
422,하당보건소,MPB101000103,34.81694,126.425532
423,버스터미널후문,MPB101301006,34.8126721,126.4167847
424,이마트,MPB101301008,34.8107613,126.4255287
425,제일3차아파트,MPB101301009,34.8120385,126.4282235
426,하당중학교,MPB101301010,34.81042,126.429333
427,부영1차아파트,MPB101301012,34.804947,126.432908
428,부영2차아파트,MPB101301013,34.8039817,126.430793
429,유달경기장,MPB101301021,34.7990037,126.4008726
430,목포경찰서,MPB101301022,34.79907,126.397988
431,북교동교회앞,MPB101301030,34.793952,126.380085
432,햇빛약국,MPB101301032,34.798957,126.37834
433,죽교동주민센터,MPB101301033,34.8001037,126.3762819
434,북항회어시장,MPB101301037,34.8048305,126.3686003
435,목포남교트윈스타,MPB101301048,34.792755,126.382295
436,차없는거리,MPB101301049,34.791618,126.38428
437,목포역,MPB101301050,34.7917737,126.3861962
438,1호광장,MPB101301051,34.794152,126.387013
439,신세계볼링장,MPB101301059,34.8017103,126.4163258
440,중앙여중,MPB101301060,34.8025271,126.4182293
441,로고스교회,MPB101301064,34.802817,126.428192
442,하당중학교,MPB101301068,34.810983,126.429132
443,이마트,MPB101301071,34.810877,126.423787
444,버스터미널후문,MPB101301072,34.812988,126.416708
445,목포고용노동부,MPB101302014,34.8004725,126.4219291
446,신안군교육청,MPB101302029,34.784385,126.381368
447,석현삼거리,MPB101501002,34.8243966,126.4241488
448,하나로마트,MPB101501004,34.817947,126.42962
449,우미블루빌(후문),MPB101501010,34.799943,126.434937
450,롯데마트,MPB101501011,34.7997013,126.4304952
451,유달정보신문사,MPB101501012,34.800655,126.428598
452,초원아파트,MPB101501013,34.801175,126.425027
453,중바위,MPB101501015,34.794265,126.424623
454,근화황제아파트,MPB101501021,34.7901637,126.4040285
455,자유시장,MPB101501022,34.7926729,126.4022901
456,신안비치1차아파트,MPB101501041,34.8061094,126.3699854
457,산정동교회,MPB101501046,34.807702,126.378925
458,목포기상대,MPB101501049,34.8157086,126.3826323
459,삽진산단건너,MPB101501050,34.8198425,126.384549
460,용해펌프장,MPB101501052,34.8214547,126.3937241
461,포미타운입구,MPB101501054,34.817278,126.398628
462,용해호반리젠시빌,MPB101501056,34.8174166,126.3947971
463,포미타운103호,MPB101501058,34.817788,126.397662
464,구.목포경찰서,MPB101501061,34.814473,126.400052
465,산정농공단지 사거리,MPB101502051,34.816048,126.37444
466,농공단지 소방서,MPB101502052,34.818756,126.3774992
467,삽진산단 사거리,MPB101502053,34.8228286,126.3803865
468,삽진산단입구,MPB101502054,34.8219991,126.3825517
469,목포자동차등록사업소,MPB101502055,34.8134817,126.3772778
470,호반리젠시빌,MPB101502075,34.81497,126.419902
471,석현동,MPB101502077,34.8220964,126.4225276
472,석현동차고지,MPB101503001,34.8221161,126.4227176
473,우진아트빌,MPB101503003,34.818778,126.42118
474,호반리젠시빌,MPB101503004,34.815118,126.41952
475,한일시장,MPB101503011,34.806672,126.398478
476,용해하이츠,MPB101503013,34.81141,126.39938
477,용해동주민센터,MPB101503015,34.816192,126.399945
478,포미타운105동,MPB101503017,34.8173002,126.3962791
479,대연초등학교,MPB101503022,34.818992,126.399185
480,신동마을앞,MPB101503024,34.821378,126.389785
481,삽진산단입구,MPB101503025,34.82023,126.384462
482,목포기상대,MPB101503026,34.8178611,126.3833358
483,연산주공후문,MPB101503028,34.8113052,126.3830864
484,행운타워,MPB101503030,34.805423,126.376112
485,홍일중고등학교,MPB101503037,34.800322,126.375273
486,햇빛약국,MPB101503039,34.7980703,126.379109
487,양동우체국,MPB101503040,34.797588,126.380978
488,목포여고,MPB101503041,34.796802,126.3845545
489,목포역,MPB101503043,34.7918434,126.385922
490,원광한의원,MPB101503044,34.790152,126.386893
491,목포남초등학교입구,MPB101503045,34.7901679,126.3895678
492,삼학우체국,MPB101503047,34.7884143,126.3958312
493,목포복음교회,MPB101503050,34.7932986,126.3971991
494,자유시장,MPB101503052,34.7926339,126.4019682
495,근화황제아파트,MPB101503053,34.7899915,126.4034242
496,남해하수펌프장,MPB101503056,34.793272,126.412522
497,문화예술회관,MPB101503057,34.792503,126.417535
498,국립해양유물전시관,MPB101503058,34.792888,126.422757
499,중바위,MPB101503059,34.793875,126.424627
500,유달정보,MPB101503062,34.8004014,126.4284813
501,롯데마트,MPB101503063,34.7994207,126.4309831
502,우미블루빌(후문),MPB101503064,34.799853,126.434747
503,우미오션빌,MPB101503065,34.7982262,126.4367833
504,우미블루빌,MPB101503066,34.800462,126.43709
505,부흥동주민센터,MPB101503067,34.804353,126.434332
506,부주산 입구,MPB101503070,34.8134603,126.4299435
507,하나로마트,MPB101503071,34.818368,126.430105
508,석현동차고지,MPB101503075,34.8222302,126.4228747
509,삽진산단입구,MPB101504025,34.821757,126.383218
510,삽진산단사거리,MPB101504026,34.822995,126.380277
511,농공단지소방서,MPB101504027,34.8188309,126.3774042
512,산정농공단지 사거리,MPB101504028,34.8158632,126.374359
513,목포자동차등록사업소,MPB101504029,34.8134157,126.3769671
514,석현삼거리,MPB101504078,34.8252105,126.4223723
515,이마트,MPB102000005,34.8119657,126.4234456
516,포르모,MPB102000007,34.8078584,126.4261021
517,태양주유소건너,MPB102000008,34.804247,126.428688
518,옥암동성당,MPB102000011,34.8068394,126.4353368
519,목포옥암코아루ⓐ,MPB102000012,34.808195,126.4377409
520,옥암주공1차,MPB102000013,34.8098785,126.4389821
521,법원검찰청,MPB102000015,34.8123385,126.4467819
522,옥암푸르지오,MPB102000016,34.810173,126.444868
523,옥암중학교,MPB102000017,34.8116707,126.4512096
524,한라비발디아파트,MPB102000023,34.807583,126.455598
525,영산초등학교,MPB102000024,34.8075132,126.4512459
526,한국아델리움107동,MPB102000026,34.804862,126.445507
527,카누경기장,MPB102000027,34.8034083,126.4415247
528,우미블루빌,MPB102000028,34.8005,126.436773
529,갓바위터널,MPB102000033,34.797973,126.426743
530,목포교육지원청,MPB102000034,34.798518,126.423272
531,제일정보고,MPB102000042,34.799062,126.394273
532,대성LH아파트정문,MPB102000050,34.8019282,126.3814081
533,구용꿈여인숙,MPB102000051,34.801765,126.382698
534,대성동주민센터,MPB102000052,34.800623,126.383558
535,대성초등학교,MPB102000054,34.8001767,126.3806775
536,농협북항지점,MPB102000058,34.80668,126.373023
537,신안비치1차아파트,MPB102000059,34.8076169,126.3711291
538,목포대교입구,MPB102000062,34.802362,126.368382
539,어민동산입구,MPB102000063,34.801287,126.370953
540,2호광장,MPB102000077,34.800348,126.392777
541,목포경찰서,MPB102000079,34.7987142,126.3982748
542,목포교육지원청,MPB102000087,34.7984253,126.4230248
543,갓바위터널,MPB102000088,34.797727,126.427033
544,우미파크빌5차,MPB102000089,34.795813,126.428888
545,평화광장,MPB102000090,34.7965153,126.433338
546,카누경기장,MPB102000095,34.8030223,126.4412071
547,골드클레스아파트,MPB102000097,34.80631,126.447593
548,영산초등학교,MPB102000098,34.8073555,126.4512588
549,주공회룡마을,MPB102000101,34.811367,126.459532
550,아이파크·전남개발공사,MPB102000102,34.8126703,126.4568275
551,옥암주공1차아파트,MPB102000107,34.8098805,126.4392171
552,목포옥암코아루ⓐ,MPB102000108,34.8080199,126.4378306
553,옥암동성당,MPB102000109,34.8070235,126.435247
554,부영1차아파트,MPB102000110,34.804868,126.433068
555,태양주유소,MPB102000112,34.80397,126.429093
556,포르모,MPB102000113,34.808282,126.426127
557,대성사랑으로,MPB102000116,34.819042,126.421578
558,도청사거리,MPB102000117,34.8146018,126.45946
559,전남교육청,MPB102000118,34.814233,126.4691025
560,어민동산,MPB103001003,34.7960912,126.3684136
561,목포해상케이블카,MPB103001004,34.7984519,126.3682228
562,일신아파트,MPB103001011,34.805233,126.385118
563,유달제일교회,MPB103001019,34.8032957,126.3994568
564,문태중고등학교,MPB103001021,34.799697,126.40135
565,이로동주민센터,MPB103001023,34.7991995,126.4111171
566,시민문화체육센터,MPB103001029,34.8106856,126.4394047
567,아이파크·전남개발공사,MPB103001032,34.8125825,126.457102
568,주공회룡마을,MPB103001033,34.811443,126.45929
569,남악상록아파트,MPB103001036,34.808358,126.458052
570,애향중학교,MPB103001037,34.807293,126.456313
571,목포대평생교육원,MPB103001038,34.805177,126.4573483
572,전남도립도서관,MPB103001039,34.8051793,126.4618414
573,남악고,MPB103001043,34.809922,126.468782
574,남악시장,MPB103001044,34.809691,126.4717556
575,남악오룡중학교,MPB103001045,34.8088436,126.474461
576,경남아너스빌,MPB103001046,34.8099663,126.4756421
577,신동아파밀리에,MPB103001047,34.812037,126.476665
578,전남교육청,MPB103001049,34.81469,126.468983
579,전남도청,MPB103001050,34.814627,126.462245
580,회룡마을,MPB103001051,34.810372,126.460082
581,오룡시장,MPB103001052,34.807848,126.460088
582,목포대평생교육원,MPB103001057,34.8055468,126.4568298
583,애향중학교,MPB103001058,34.806762,126.456365
584,산정동주민센터,MPB103001086,34.809687,126.386565
585,일신아파트,MPB103001088,34.805365,126.384903
586,한국아델리움107동,MPB103002001,34.8052507,126.4455023
587,옥암중학교,MPB103002009,34.8119,126.451223
588,시민문화체육센터,MPB103002011,34.811067,126.438148
589,삼일로,MPB103002026,34.800232,126.378083
590,홍일중고등학교,MPB103002028,34.800617,126.374657
591,목포해상케이블카,MPB103002030,34.7985166,126.3679104
592,어민동산,MPB103002031,34.7955924,126.3681034
593,서부초등학교,MPB103002037,34.800883,126.37322
594,대성초등학교,MPB103002041,34.800345,126.38011
595,유달경기장,MPB103002048,34.7986342,126.4008939
596,한국아델리움,MPB103002066,34.806115,126.44736
597,동명동어시장,MPB106000006,34.7882786,126.391025
598,유달초등학교입구,MPB106000012,34.7863867,126.3812617
599,유달산우체국,MPB106000013,34.786897,126.383747
600,대성천주교,MPB106000020,34.8012536,126.379431
601,보건소사거리,MPB106000022,34.8045637,126.3755206
602,유달중학교,MPB106000032,34.8032568,126.392098
603,부주산입구,MPB106000046,34.8124417,126.429984
604,회룡마을,MPB106000052,34.810457,126.460378
605,옥암푸르지오,MPB106000066,34.810295,126.445052
606,목포고등학교,MPB106000089,34.806723,126.3896
607,종합사회복지관,MPB106000095,34.8093783,126.3734064
608,1호광장,MPB106000104,34.7947062,126.3868945
609,목포YMCA,MPB106000106,34.788463,126.384683
610,구청호시장,MPB106100007,34.794452,126.393105
611,동부시장,MPB106100010,34.8042272,126.3917133
612,용해호반리젠시빌,MPB106100019,34.817162,126.395445
613,목포보훈지청,MPB106100021,34.8190107,126.4015494
614,대연초등학교,MPB106100022,34.8204858,126.4001357
615,목포국제축구센터,MPB106100030,34.8274001,126.4020373
616,실내체육관,MPB106100032,34.82508,126.408028
617,도룡마을,MPB106100033,34.8271608,126.4131461
618,푸른주유소,MPB106100034,34.827837,126.416843
619,삼향동주민센터,MPB106100035,34.82918,126.418647
620,카톨릭대학교,MPB106100036,34.82643,126.421567
621,삼향동주민센터,MPB106100042,34.829912,126.418155
622,실내체육관,MPB106100045,34.825367,126.408261
623,대양산단자동차매매단지,MPB106100046,34.8316027,126.4035999
624,목포국제축구센터,MPB106100053,34.8274525,126.4018507
625,대양산단자동차매매단지,MPB106100054,34.8316242,126.4034848
626,대연초등학교,MPB106100056,34.820227,126.400675
627,목포보훈지청,MPB106100057,34.8192754,126.4019013
628,연산근화아파트,MPB106100066,34.81204,126.385372
629,삼학도차고지,MPB110800001,34.7869875,126.4022835
630,구자유시장,MPB110800006,34.7936598,126.3942649
631,동명농협,MPB110800007,34.791157,126.392883
632,태원골프연습장,MPB110800028,34.821662,126.432558
633,삼향우체국,MPB110800030,34.8211813,126.4389629
634,용강,MPB110800035,34.828238,126.454307
635,덕치,MPB110800037,34.834845,126.464158
636,계두,MPB110800039,34.834583,126.47141
637,극배,MPB110800041,34.8398029,126.4752769
638,월계,MPB110800042,34.8408266,126.4769113
639,해원아파트,MPB110800043,34.843509,126.4777444
640,송산,MPB110800044,34.845588,126.478768
641,일로역,MPB110800045,34.846982,126.479053
642,일로성당앞,MPB110800047,34.8487892,126.4917574
643,일로읍사무소,MPB110800048,34.8506044,126.4910024
644,송산,MPB110800051,34.845448,126.47868
645,해원아파트,MPB110800052,34.843438,126.477507
646,이동,MPB110800054,34.8360905,126.4729169
647,덕치,MPB110800057,34.834828,126.464098
648,대안동,MPB110800060,34.8256255,126.4500387
649,과동,MPB110800061,34.824472,126.448455
650,삼향농협,MPB110800062,34.822182,126.445143
651,삼향읍사무소,MPB110800063,34.821495,126.442968
652,임성역,MPB110800064,34.821882,126.437697
653,태원골프연습장,MPB110800065,34.821835,126.432637
654,한국병원,MPB110800073,34.8072896,126.4153519
655,2호광장,MPB110800080,34.8017299,126.3917686
656,삼학하이츠,MPB110800090,34.7933638,126.4003157
657,한울웨딩홀,MPB110800092,34.7893375,126.4019026
658,제일3차아파트,MPB111200006,34.813258,126.427862
659,우미오션빌,MPB111200011,34.7983041,126.4364052
660,평화광장,MPB111200012,34.7965032,126.4324746
661,우미파크빌5차,MPB111200014,34.795985,126.429005
662,하이마트,MPB111200015,34.798151,126.4281027
663,영흥중고등학교,MPB111200020,34.805592,126.418323
664,중앙병원,MPB120000096,34.8217762,126.4220059
665,연동파출소,MPB120000106,34.8039554,126.3950402
666,호남동119안전센터,MPB120000109,34.797846,126.3885795
667,산정초등학교입구,MPB130001010,34.7995525,126.3898082
668,하당금호아파트,MPB130001023,34.8097336,126.4248336
669,하당동동아아파트,MPB130001028,34.8023493,126.4236035
670,초원2차아파트,MPB130001029,34.8051638,126.4295523
671,사랑으로부영,MPB130001031,34.8084833,126.4346269
672,만남의폭포,MPB130001032,34.8044524,126.437696
673,영산호휴게소,MPB130001038,34.778513,126.453447
674,농업박물관,MPB130001039,34.773238,126.458858
675,자유무역지구,MPB130001040,34.770725,126.46056
676,동양자동차학원,MPB130001041,34.76627,126.466417
677,대촌,MPB130001043,34.762532,126.473512
678,중촌,MPB130001044,34.76014,126.47535
679,영암신호정,MPB130001045,34.7542669,126.474378
680,호동,MPB130001046,34.750653,126.474543
681,종원아파트,MPB130001047,34.748465,126.475815
682,삼호터미널,MPB130001048,34.746028,126.476552
683,퀸스빌,MPB130001051,34.7447739,126.4653704
684,저두,MPB130001052,34.7435949,126.4600279
685,난전리,MPB130001053,34.74406,126.450762
686,난대부락,MPB130001054,34.7447998,126.4426618
687,도음전마을,MPB130001055,34.7463896,126.4369696
688,당두,MPB130001056,34.748697,126.434405
689,검길,MPB130001057,34.748388,126.429532
690,엄포,MPB130001058,34.747182,126.423663
691,하촌마을,MPB130001060,34.747445,126.41139
692,대동,MPB130001061,34.742665,126.407045
693,영호정,MPB130001062,34.740545,126.395947
694,낚시점,MPB130001063,34.733853,126.392505
695,현대삼호중공업남문,MPB130001064,34.733602,126.38992
696,삼호서초등학교,MPB130001069,34.747213,126.377698
697,현대삼호중공업입구,MPB130001074,34.750777,126.386645
698,용당사거리,MPB130001075,34.762712,126.395068
699,아산,MPB130001076,34.761002,126.396778
700,산음,MPB130001077,34.757893,126.4008234
701,상촌,MPB130001078,34.753437,126.408362
702,가내항,MPB130001079,34.751002,126.41111
703,엄포,MPB130001081,34.747212,126.423753
704,검길,MPB130001082,34.748468,126.42961
705,당두,MPB130001083,34.7485892,126.4344287
706,도음전,MPB130001084,34.74648,126.436958
707,난대부락,MPB130001085,34.7449096,126.4423272
708,난전리,MPB130001086,34.744323,126.446722
709,저두,MPB130001088,34.7435091,126.4600016
710,퀸스빌,MPB130001089,34.744888,126.465452
711,중앙촌,MPB130001091,34.745377,126.47342
712,삼호터미널,MPB130001092,34.746087,126.477388
713,종원아파트,MPB130001093,34.748948,126.475842
714,영암신호정,MPB130001095,34.7560628,126.4756232
715,중촌,MPB130001096,34.760013,126.475543
716,대촌,MPB130001097,34.763467,126.472358
717,보리밭사잇길,MPB130001098,34.764502,126.470433
718,동양자동차학원,MPB130001099,34.76714,126.465318
719,자유무역지구,MPB130001101,34.77067,126.460885
720,농업박물관,MPB130001102,34.775972,126.456467
721,사랑으로부영,MPB130001111,34.8080159,126.4358246
722,제일여고,MPB130001112,34.807593,126.431552
723,초원2차아파트,MPB130001113,34.8049972,126.4295817
724,하당동동아아파트,MPB130001114,34.8023626,126.4240788
725,동신대학교한방병원,MPB130001116,34.804424,126.4221564
726,포르모,MPB130001117,34.8062432,126.4259755
727,목상고등학교,MPB130001128,34.8049375,126.3969457
728,에프원경주장입구,MPB130002059,34.748708,126.413903
729,가내항,MPB130002060,34.751052,126.411472
730,상촌,MPB130002061,34.7535271,126.4085683
731,산음,MPB130002062,34.7582119,126.400688
732,아산,MPB130002063,34.7600264,126.3983269
733,용당사거리,MPB130002064,34.7626958,126.3953675
734,모밀항,MPB130002065,34.7535905,126.3882736
735,현대삼호아파트2차,MPB130002067,34.744157,126.383438
736,한마음회관,MPB130002068,34.745167,126.381015
737,현대삼호아파트3차,MPB130002071,34.7482609,126.3760472
738,삼호중공업남문,MPB130002076,34.73341,126.3896
739,낚시점,MPB130002077,34.7338379,126.3934797
740,대동,MPB130002079,34.7427015,126.4071224
741,하촌,MPB130002080,34.7473906,126.4114599
742,목포복음교회,MPB150000005,34.7936365,126.39667
743,연동육거리,MPB150000013,34.798683,126.391202
744,제일정보고,MPB150000014,34.798787,126.39391
745,용해동동아아파트,MPB150000017,34.798572,126.407988
746,부흥동주민센터,MPB150000025,34.803663,126.4346
747,해양수산청,MPB150000026,34.8021732,126.4368999
748,염업조합,MPB150000033,34.77583,126.451862
749,휴스틸,MPB150000034,34.772753,126.445767
750,미포조선,MPB150000035,34.76859,126.4481696
751,보원엠앤피,MPB150000036,34.7645982,126.4504952
752,잔디구장,MPB150000038,34.757175,126.454905
753,영암삼호금호아파트,MPB150000039,34.7531186,126.4572405
754,한양파크빌,MPB150000041,34.7482528,126.4632546
755,퀸스빌ⓐ앞,MPB150000042,34.7461734,126.4663285
756,삼호농협,MPB150000043,34.745422,126.468652
757,세한대학교,MPB150000046,34.744993,126.482637
758,동암마을,MPB150000047,34.742528,126.486535
759,송죽정,MPB150000049,34.73972,126.500892
760,매자리,MPB150000050,34.735882,126.509917
761,망산마을,MPB150000051,34.732867,126.51998
762,서창초등학교,MPB150000053,34.729173,126.532702
763,원서창,MPB150000054,34.7290723,126.5382372
764,독천터미널,MPB150000058,34.7247185,126.5693293
765,비례부락,MPB150000059,34.7242012,126.5647808
766,비례부락,MPB150000061,34.7240923,126.5646837
767,서창,MPB150000063,34.729185,126.5388093
768,서창초등학교,MPB150000064,34.729236,126.5327283
769,망산,MPB150000067,34.73306,126.519867
770,매자리,MPB150000068,34.736082,126.509958
771,송죽정,MPB150000069,34.74,126.500442
772,세한대학교,MPB150000071,34.745185,126.482825
773,중앙촌,MPB150000073,34.745445,126.473302
774,삼호농협,MPB150000074,34.745433,126.468913
775,퀸스빌ⓐ건너,MPB150000075,34.7460835,126.4668922
776,한양파크빌건너,MPB150000076,34.7484744,126.4633337
777,영암삼호금호A,MPB150000077,34.7529944,126.457477
778,잔디구장,MPB150000078,34.7572995,126.4549853
779,원당중공업,MPB150000080,34.761708,126.452455
780,보원엠앤피,MPB150000081,34.764152,126.451075
781,미포조선,MPB150000084,34.768897,126.448248
782,염업조합,MPB150000085,34.7758011,126.4521522
783,영산호휴게소,MPB150000086,34.778993,126.45335
784,해양수산청,MPB150000093,34.8025053,126.4367317
785,동신대학교한방병원,MPB150000098,34.8048093,126.4218836
786,영흥중고입구,MPB150000099,34.8028666,126.417875
787,이로동주민센터,MPB150000100,34.7992918,126.4104479
788,용해동동아아파트,MPB150000101,34.7989419,126.4080334
789,연동육거리,MPB150000105,34.798912,126.391082
790,삼학타운,MPB150000114,34.7935392,126.4002696
791,목포고등학교,MPB160000050,34.80676,126.389747
792,연산주공아파트,MPB160000053,34.8132231,126.3840686
793,연산주공5차아파트,MPB160000054,34.8147751,126.3807458
794,삼일로,MPB160000063,34.8002022,126.3785565
795,종합사회복지관,MPB160000069,34.8098549,126.3746321
796,연산주공5차아파트,MPB160000071,34.8139497,126.3802158
797,목포동초등학교,MPB160000074,34.8095061,126.3881824
798,산정농공단지,MPB170000055,34.8123465,126.3774823
799,산정농공단지,MPB170000070,34.8121467,126.377813
800,4차입구,MPB180000003,34.787308,126.39728
801,홈플러스,MPB180000014,34.80551,126.400223
802,청호시장,MPB180000021,34.816268,126.423348
803,하나로마트입구,MPB180000023,34.816617,126.42771
804,삼향읍사무소,MPB180000028,34.821313,126.442993
805,종월촌,MPB180000029,34.82169,126.444683
806,상용,MPB180000030,34.824278,126.448517
807,대안동,MPB180000031,34.825578,126.450342
808,용강,MPB180000032,34.8284487,126.4546351
809,무내미,MPB180000033,34.8309412,126.4612787
810,죽림,MPB180000035,34.8358628,126.4662618
811,극배,MPB180000038,34.839745,126.475387
812,월계,MPB180000039,34.8407734,126.4770159
813,감돈리입구,MPB180000043,34.8493379,126.4871447
814,일로지서,MPB180000045,34.849007,126.492455
815,일로초등학교,MPB180000046,34.849585,126.493852
816,일로월암리,MPB180000047,34.849923,126.49703
817,월성-평정,MPB180000048,34.855443,126.499297
818,일로인동,MPB180000049,34.859743,126.500815
819,일로용산리,MPB180000050,34.862635,126.501843
820,일로산정1리,MPB180000051,34.864815,126.501643
821,일로용산리,MPB180000052,34.8622848,126.5016453
822,등림,MPB180000053,34.87187,126.500608
823,원광암,MPB180000054,34.8745293,126.5014404
824,청운동,MPB180000055,34.87659,126.501135
825,상신기리,MPB180000056,34.8803112,126.5013475
826,일로농공단지앞,MPB180000057,34.8849722,126.5029982
827,파군교,MPB180000058,34.8919192,126.5033586
828,회룡정,MPB180000059,34.9011403,126.5045825
829,청용,MPB180000060,34.9033371,126.5047256
830,몽탄정수장,MPB180000061,34.908878,126.506438
831,몽강,MPB180000062,34.915097,126.50518
832,약곡,MPB180000063,34.9178968,126.4996455
833,귀학,MPB180000064,34.9223411,126.4997361
834,몽탄전화국,MPB180000065,34.9275189,126.5012915
835,몽탄역,MPB180000066,34.9297005,126.5027617
836,몽탄농협,MPB180000067,34.9327987,126.5036275
837,유곡,MPB180000068,34.935163,126.504603
838,호국사,MPB180000069,34.9403534,126.5042129
839,신학동,MPB180000070,34.946787,126.506318
840,인평,MPB180000072,34.956792,126.50876
841,차뫼,MPB180000073,34.959432,126.50955
842,용뫼,MPB180000074,34.9622988,126.5107975
843,무안역,MPB180000075,34.963268,126.517313
844,사창,MPB180000076,34.9655,126.513793
845,도덕사,MPB180000077,34.9693361,126.5096219
846,성암,MPB180000078,34.978043,126.500228
847,무안병원,MPB180000079,34.9916958,126.4887688
848,무안군청,MPB180000082,34.9918734,126.4810988
849,무안터미널,MPB180000083,34.9869856,126.4778177
850,무안장터,MPB180000084,34.986997,126.473943
851,금광아파트,MPB180000087,34.9930081,126.4718468
852,고전리,MPB180000088,34.993445,126.476312
853,용산마을,MPB180000092,34.994578,126.483525
854,무안병원,MPB180000094,34.9916633,126.4886541
855,성암,MPB180000095,34.977908,126.500307
856,도덕사,MPB180000096,34.9692254,126.5098697
857,사창,MPB180000098,34.96517,126.513308
858,용뫼,MPB180000099,34.9623,126.510687
859,차뫼,MPB180000100,34.9593325,126.5095024
860,인평,MPB180000101,34.956543,126.50842
861,신학동,MPB180000102,34.948503,126.507115
862,호국사,MPB180000104,34.9397794,126.5040391
863,유곡,MPB180000105,34.9350458,126.5045179
864,몽탄농협,MPB180000106,34.933032,126.503603
865,몽탄역,MPB180000107,34.9297391,126.5026277
866,몽탄전화국,MPB180000108,34.927723,126.501448
867,귀학리,MPB180000109,34.922252,126.499645
868,약곡,MPB180000110,34.917842,126.4995641
869,몽강,MPB180000111,34.915007,126.505232
870,몽탄정수장,MPB180000112,34.9095,126.505978
871,청룡1리(오갈재),MPB180000113,34.9034381,126.5049433
872,회룡정,MPB180000114,34.9010889,126.5044802
873,파군교,MPB180000115,34.891793,126.502933
874,농공단지,MPB180000116,34.884053,126.502577
875,진사동,MPB180000117,34.879723,126.501045
876,원광암,MPB180000119,34.874185,126.501253
877,등림,MPB180000120,34.8717712,126.5004814
878,일로산정리,MPB180000121,34.8667304,126.5005741
879,일로산정1리,MPB180000122,34.8646916,126.5015615
880,일로산정리,MPB180000123,34.866884,126.5006106
881,일로인동,MPB180000124,34.8599919,126.5007979
882,월성-평정,MPB180000125,34.8558004,126.4993335
883,일로월암리,MPB180000126,34.849955,126.496978
884,일로초등학교,MPB180000127,34.84977,126.494247
885,일로지서,MPB180000128,34.8491272,126.4923932
886,일로읍사무소,MPB180000129,34.8506912,126.4911326
887,연소동입구,MPB180000130,34.8497404,126.4878289
888,일로역,MPB180000131,34.846987,126.478945
889,이동,MPB180000135,34.836107,126.472782
890,계두,MPB180000136,34.834635,126.471402
891,죽림,MPB180000137,34.8359702,126.466162
892,무내미,MPB180000139,34.83093,126.461107
893,목포남초등학교,MPB180000166,34.7904562,126.3895421
894,하나로마트입구,MPB200000001,34.816766,126.427954
895,영호정,MPB200000002,34.740398,126.395943
896,무안농업기술센터,MPB200000004,34.977888,126.466957
897,유교리,MPB200000005,34.84642,126.438653
898,진성원,MPB200000006,34.8503463,126.4410212
899,진성원,MPB200000007,34.850515,126.441072
900,유교리,MPB200000008,34.846443,126.438683
901,미포조선후문,MPB200000010,34.769992,126.448475
902,푸른주유소,MPB200000014,34.82799,126.415517
903,도룡마을,MPB200000015,34.8269381,126.4129467
904,원당중공업,MPB200000017,34.761587,126.452243
905,망산주유소,MPB200000018,34.73364,126.526735
906,신기마을,MPB200000019,34.724958,126.559577
907,신기마을,MPB200000020,34.725104,126.559656
908,동암마을,MPB200000021,34.74223,126.487657
909,휴스틸,MPB200000022,34.7731911,126.4458328
910,보리밭사잇길,MPB200000023,34.76415,126.470408
911,길촌파크빌,MPB200000027,34.750343,126.475017
912,대촌,MPB200000028,34.849052,126.240708
913,대촌,MPB200000029,34.849363,126.239627
914,상장천,MPB200000030,34.846703,126.347047
915,황도,MPB200000031,34.739237,126.388237
916,황도(종어촌),MPB200000032,34.73885,126.388587
917,하당우체국,MPB200000035,34.806642,126.424128
918,옥암동우체국,MPB200000036,34.8011344,126.434634
919,농업박물관,MPB200000037,34.774557,126.45756
920,미포조선,MPB200000038,34.771305,126.451687
921,한국산업단지공단,MPB200000039,34.767708,126.442617
922,보워터코리아,MPB200000040,34.761505,126.42694
923,푸른중공업,MPB200000041,34.764815,126.424817
924,KC,MPB200000042,34.768957,126.422435
925,KC,MPB200000043,34.768648,126.422432
926,푸른중공업,MPB200000044,34.76464,126.424733
927,보워터코리아,MPB200000045,34.76135,126.427283
928,한국산업단지공단,MPB200000046,34.767582,126.442857
929,미포조선후문,MPB200000047,34.76978,126.448452
930,미포조선,MPB200000048,34.77124,126.452142
931,옥암동우체국,MPB200000049,34.801353,126.434222
932,남악리젠시빌,MPB200000050,34.81065,126.466689
933,남악출장소,MPB200000051,34.81512,126.454884
934,중앙고입구,MPB200000052,34.836787,126.423247
935,중앙고입구,MPB200000053,34.836825,126.423312
936,망산주유소,MPB200000054,34.733814,126.526697
937,상장천,MPB200000055,34.84633,126.347735
938,남악부영ⓐ,MPB200000056,34.811606,126.471014
939,시외버스터미널,MPB200000057,34.811651,126.41785
940,남악부영,MPB200000060,34.8121113,126.4723028
941,남악부영,MPB200000061,34.8118948,126.4718638
942,남악제일풍경채ⓐ,MPB200000062,34.8104574,126.4799993
943,남악골드디움ⓐ,MPB200000063,34.8104106,126.4798031
944,남악제일풍경채ⓐ후문,MPB200000064,34.8122027,126.480378
945,남악제일풍경채ⓐ후문,MPB200000065,34.8120505,126.480511
946,고하도입구,MPB324000001,34.7596532,126.3640926
947,삼학도차고지,MPB324000002,34.7871929,126.4025595
948,유달초등학교입구,MPB324000003,34.7863238,126.3813817
949,무안교통,MPB324000004,34.9985446,126.4871931
950,석현동차고지,MPB324000005,34.8215919,126.4225779
951,에프원경주장입구,MPB324000006,34.7486093,126.4136409
952,은혜슈퍼,MPB324000007,34.7899181,126.3989951
953,남악모아엘가ⓐ,MPB324000008,34.8075226,126.4661424
954,남악고,MPB324000009,34.8096641,126.4687942
955,법원검찰청,MPB324000010,34.8132117,126.4455725
956,오룡마을,MPB324000011,34.8141849,126.4565843
957,포미4단지아파트,MPB324000012,34.8182619,126.393055
958,포미4단지아파트,MPB324000013,34.8181698,126.3928375
959,남악성당,MPB324000014,34.8109583,126.4756517
960,남악성당,MPB324000015,34.8107677,126.4755119
961,경남아너스빌,MPB324000016,34.8101039,126.4753834
962,남악모아엘가ⓐ,MPB324000017,34.8073938,126.4657417
963,남악중앙시장,MPB324000018,34.8056024,126.4650316
964,남악중앙시장,MPB324000019,34.8051746,126.4644652
965,전남도립도서관,MPB324000020,34.8055739,126.4616867
966,오룡중학교,MPB324000021,34.808051,126.4742423
967,남악베아채비올레,MPB324000022,34.8076648,126.4717545
968,남악세영리첼,MPB324000023,34.8078768,126.4701721
969,남악세영리첼,MPB324000024,34.8086682,126.4709877
970,남악근화베아채,MPB324000025,34.8126283,126.4695663
971,남악근화베아채,MPB324000026,34.8124467,126.469421
972,남악중앙공원,MPB324000027,34.8129849,126.4635694
973,남악중앙공원,MPB324000028,34.8128135,126.4635551
974,용해골드디움6차,MPB324000029,34.8201081,126.3918057
975,용해골드디움6차,MPB324000030,34.8201017,126.3916035
976,근화옥암베아채,MPB324000031,34.8118937,126.4535464
977,옥암골드디움3차,MPB324000032,34.8116918,126.4541776
978,삼향월계,MPB324000033,34.8384499,126.4801528
979,삼향월계,MPB324000034,34.8388104,126.4801375
980,일로하나로마트,MPB324000035,34.8486008,126.4944822
981,일로하나로마트,MPB324000036,34.848584,126.4940886
982,발산,MPB324000037,35.0948877,126.2853341
983,목포버스터미널,MPB324000038,34.8133707,126.417776
984,목포버스터미널,MPB324000039,34.8134709,126.4178894
985,목포추모공원,MPB324000045,34.8402047,126.4055693
986,신일교회앞,MPB324000046,34.823692,126.4018022
987,신일교회앞,MPB324000047,34.8240104,126.4021151
988,대성동LH아파트,MPB324000048,34.8030967,126.3824691
989,구자유시장,MPB324000049,34.7933246,126.3950892
990,목포월산마을,MPB324000050,34.8365267,126.421328
991,목포월산마을,MPB324000051,34.8367893,126.4209418
992,목포신외항,MPB324000052,34.7535942,126.3588441
993,목포신외항,MPB324000053,34.7535529,126.3592489
994,이천산업,MPB324000054,34.8335484,126.4013815
995,이천산업,MPB324000055,34.8344781,126.4009919
996,고하도케이블카승강장,MPB324000056,34.772686,126.3620017
997,해양대후문,MPB324000057,34.7935777,126.3672095
998,연산백련로입구,MPB324000058,34.8166877,126.3930717
999,연산백련로입구,MPB324000059,34.8167141,126.3930002
1000,목포청호중학교,MPB324000060,34.8155911,126.3909762
1001,목포청호중학교,MPB324000061,34.8156632,126.3909752
1002,행복모아,MPB324000062,34.816149,126.3888749
1003,행복모아,MPB324000063,34.8161587,126.3889513
1004,백련초등학교,MPB324000064,34.8187499,126.3893156
1005,백련초등학교,MPB324000065,34.8187672,126.3892334
1006,골드클래스9차,MPB324000066,34.8200836,126.3902052
1007,골드클래스9차,MPB324000067,34.8201502,126.3900895
1008,서울퍼니처,MPB324000068,34.831096,126.400408
1009,서울퍼니처,MPB324000069,34.8309962,126.4003437
1010,성민건설,MPB324000070,34.833321,126.3966821
1011,송원이엔지,MPB324000071,34.8332384,126.3965192
1012,이로중계펌프장,MPB324000072,34.8338713,126.3917536
1013,이로중계펌프장,MPB324000073,34.833906,126.3916
1014,삽진항입구,MPB324000074,34.8361497,126.3929096
1015,삽진항입구,MPB324000075,34.8362113,126.3927448
1016,이천산업,MPB324000076,34.8344073,126.4011404
1017,이천산업,MPB324000077,34.8333852,126.4012798
1018,김대중노벨기념관,MPB324000078,34.7824601,126.3927422
1019,김대중노벨기념관,MPB324000079,34.7826268,126.3927291
1020,항구포차,MPB324000080,34.7813136,126.3886373
1021,고하도윗마을,MPB324000081,34.7705956,126.372346
1022,용해광신프로그레스,MPB324000082,34.7986633,126.4051239
1023,남악골드디움후문,MPB324000083,34.8092387,126.4785504
1024,남악골드디움,MPB324000084,34.8095662,126.4799622
1025,남악제일풍경체,MPB324000085,34.8103678,126.4809363
1026,오룡행복중학정문,MPB324000086,34.8063115,126.4832602
1027,오룡푸르지오2차,MPB324000087,34.8043136,126.4842686
1028,오룡푸르지오2차,MPB324000088,34.8042886,126.4839737
1029,버스터미널입구,MPB324000089,34.812857,126.4183129
1030,삼향계두,MPB324900001,34.8341452,126.4775867
1031,죽동,MPB327000003,34.936137,126.7116049
1032,신원리,MPB327000004,34.950663,126.7114877
1033,금동,MPB327000005,34.954328,126.7107243
1034,신가,MPB327000006,34.960473,126.7072152
1035,양산,MPB327000007,34.9717994,126.7066514
1036,천곡,MPB327000008,34.9767184,126.7053003
1037,봉성,MPB327000009,34.9803567,126.7045914
1038,석기네,MPB327000010,34.9861372,126.7046669
1039,풍물시장,MPB327000011,34.9920802,126.709606
1040,제일병원,MPB327000012,34.9928493,126.7107053
1041,영산포터미널,MPB327000013,34.9939517,126.712437
1042,남교동,MPB327000014,34.9967406,126.7142347
1043,노인복지회관,MPB327000015,34.9996086,126.7136265
1044,영강삼거리,MPB327000016,35.0058753,126.7108158
1045,영강사거리,MPB327000017,35.0064297,126.710794
1046,대덕아파트,MPB327000018,35.0085827,126.7118474
1047,나주시청,MPB327000019,35.0165737,126.7142259
1048,문화예술회관,MPB327000020,35.0210734,126.7135526
1049,송월부영아파트,MPB327000021,35.0238438,126.7131862
1050,소방삼거리,MPB327000022,35.0266434,126.7117673
1051,나주고후문,MPB327000023,35.0286929,126.7100813
1052,백민원,MPB327000024,35.0309499,126.709813
1053,천주교사거리/성북육교,MPB327000025,35.0357958,126.7166457
1054,성북육교,MPB327000026,35.0357917,126.716706
1055,나주경찰서/중앙병원,MPB327000027,35.0357222,126.7199079
1056,나주터미널,MPB327000028,35.0343126,126.7215657
1057,나주터미널,MPB327000029,35.033447,126.7215685
1058,나주터미널,MPB327000030,35.0335661,126.7211672
1059,나주경찰서/성북아파트,MPB327000031,35.0359149,126.7204323
1060,천주교사거리,MPB327000032,35.0359629,126.7166934
1061,나주고후문,MPB327000033,35.0285611,126.7099291
1062,소방삼거리,MPB327000034,35.0267665,126.7112837
1063,부영아파트,MPB327000035,35.023792,126.7128415
1064,문화예술회관,MPB327000036,35.0227161,126.7130984
1065,문화예술회관,MPB327000037,35.0210627,126.7132951
1066,나주시청,MPB327000038,35.0169818,126.7138877
1067,나주교육청,MPB327000039,35.01448,126.71395
1068,대덕아파트,MPB327000040,35.0086575,126.7115672
1069,영강사거리,MPB327000041,35.0064593,126.7104869
1070,노인복지회관,MPB327000042,34.99958,126.7133857
1071,남교동,MPB327000043,34.9970586,126.7139084
1072,영산포터미널,MPB327000044,34.9943272,126.7126361
1073,풍물시장,MPB327000045,34.992811,126.7096702
1074,풍물시장,MPB327000046,34.992711,126.7095397
1075,풍물시장,MPB327000047,34.9913909,126.7082923
1076,석기네,MPB327000048,34.9873259,126.7044308
1077,봉성,MPB327000049,34.9803402,126.7041314
1078,천곡,MPB327000050,34.9767122,126.7050429
1079,양산,MPB327000051,34.9717934,126.7064324
1080,신가,MPB327000052,34.9606471,126.7069616
1081,금동,MPB327000053,34.9537818,126.7106145
1082,신원리,MPB327000054,34.9489546,126.7115424
1083,죽동,MPB327000055,34.9362753,126.7113736
1084,행전,MPB327000056,34.950282,126.6825077
1085,행전,MPB327000057,34.9502021,126.6826837
1086,평전,MPB327000058,34.9562121,126.6860521
1087,평전(화정1리),MPB327000059,34.9612912,126.6864072
1088,평전,MPB327000060,34.9563109,126.6859964
1089,평전(화정1리),MPB327000061,34.9614035,126.6863458
1090,동산,MPB327000062,34.9631911,126.6914106
1091,동산,MPB327000063,34.9632812,126.6913932
1092,상사,MPB327000064,34.9670547,126.7022718
1093,상사,MPB327000065,34.9671805,126.7021993
1094,반남초교,MPB327000066,34.9117343,126.6582
1095,반남초교,MPB327000067,34.9119763,126.6579896
1096,신기,MPB327000068,34.9146655,126.6608959
1097,평촌,MPB327000069,34.9199905,126.6629108
1098,평촌,MPB327000070,34.9200433,126.6627132
1099,신기,MPB327000071,34.9147997,126.6607522
1100,월현,MPB327000072,34.8884525,126.6694521
1101,삼향계두,MPB329000001,34.8338397,126.4771804
1102,함평공영터미널,MPB340000001,35.0621291,126.5232403
1103,함평공영터미널,MPB340000002,35.0620963,126.5230926
1104,신흥동,MPB340000003,35.04513,126.5342314
1105,신흥동,MPB340000004,35.0483103,126.5338979
1106,신흥동,MPB340000005,35.0482807,126.5335693
1107,송산마을,MPB340000006,35.0451452,126.5338694
1108,송정,MPB340000007,35.0403614,126.5343972
1109,송정마을,MPB340000008,35.0402852,126.5338937
1110,경화동,MPB340000009,35.0307674,126.5344004
1111,율동,MPB340000010,35.0341037,126.534405
1112,낙천동,MPB340000011,35.036601,126.5343647
1113,낙천동,MPB340000012,35.0365536,126.5340692
1114,율동,MPB340000013,35.0340654,126.5341314
1115,영창초등학교,MPB340000014,35.0316942,126.5341593
1116,원사거리,MPB340000015,35.0231085,126.5328353
1117,청정,MPB340000016,35.0270087,126.532318
1118,학교터미널,MPB340000017,35.0224312,126.5327008
1119,청정,MPB340000018,35.0269791,126.5319895
1120,함평역,MPB340000019,35.0242733,126.5387079
1121,학야,MPB340000020,35.0188218,126.5267369
1122,학야,MPB340000021,35.0190015,126.526658
1123,비석동,MPB340000022,35.0126109,126.5174453
1124,비석동,MPB340000023,35.0148761,126.5176922
1125,비석동,MPB340000024,35.0149961,126.517477
1126,비석동,MPB340000025,35.0125962,126.5173085
1127,번동,MPB340000026,35.0098851,126.5182286
1128,번동,MPB340000027,35.0099111,126.5181023
1129,엄다,MPB340000028,35.009736,126.5154083
1130,엄다,MPB340000029,35.0098399,126.51544
1131,송촌,MPB340000030,35.007916,126.5045367
1132,송촌,MPB340000031,35.0080729,126.5044197
1133,제일병원앞,MPB340000032,34.9930383,126.4822765
1134,성동2리,MPB340000033,34.9916452,126.481209
1135,영암터미널,MPB341000001,34.7975131,126.7035269
1136,안풍,MPB343000001,34.857005,126.6784028
1137,성덕,MPB343000002,34.8622871,126.6847939
